[
  {
    "id": "shop-001",
    "name": "현대 블루핸즈 강남점",
    "type": "official",
    "brand": "현대",
    "address": "서울시 강남구 테헤란로 152",
    "phone": "02-555-1234",
    "lat": 37.5012,
    "lng": 127.0396,
    "rating": 4.6,
    "reviewCount": 234,
    "openHours": "09:00-18:00",
    "closedDays": ["일요일"],
    "services": ["엔진오일", "브레이크", "타이어", "종합검진", "에어컨"],
    "priceLevel": 3
  },
  {
    "id": "shop-002",
    "name": "기아 오토큐 서초점",
    "type": "official",
    "brand": "기아",
    "address": "서울시 서초구 반포대로 58",
    "phone": "02-533-5678",
    "lat": 37.4923,
    "lng": 127.0134,
    "rating": 4.4,
    "reviewCount": 187,
    "openHours": "08:30-18:00",
    "closedDays": ["일요일"],
    "services": ["엔진오일", "브레이크", "타이어", "종합검진", "배터리"],
    "priceLevel": 3
  },
  {
    "id": "shop-003",
    "name": "스피드메이트 역삼점",
    "type": "franchise",
    "brand": "스피드메이트",
    "address": "서울시 강남구 역삼로 123",
    "phone": "02-567-9012",
    "lat": 37.4995,
    "lng": 127.0374,
    "rating": 4.2,
    "reviewCount": 156,
    "openHours": "09:00-19:00",
    "closedDays": ["일요일", "공휴일"],
    "services": ["엔진오일", "브레이크", "타이어", "세차", "광택"],
    "priceLevel": 2
  },
  {
    "id": "shop-004",
    "name": "타이어뱅크 논현점",
    "type": "franchise",
    "brand": "타이어뱅크",
    "address": "서울시 강남구 논현로 512",
    "phone": "02-544-3456",
    "lat": 37.5089,
    "lng": 127.0301,
    "rating": 4.3,
    "reviewCount": 298,
    "openHours": "09:00-20:00",
    "closedDays": ["일요일"],
    "services": ["타이어", "휠얼라인먼트", "브레이크", "서스펜션"],
    "priceLevel": 2
  },
  {
    "id": "shop-005",
    "name": "신뢰카센터",
    "type": "private",
    "brand": null,
    "address": "서울시 강남구 삼성로 95길 24",
    "phone": "02-511-7890",
    "lat": 37.5145,
    "lng": 127.0567,
    "rating": 4.7,
    "reviewCount": 89,
    "openHours": "08:00-19:00",
    "closedDays": ["일요일"],
    "services": ["엔진오일", "브레이크", "종합정비", "사고수리"],
    "priceLevel": 1
  },
  {
    "id": "shop-006",
    "name": "쉐보레 서비스 강동점",
    "type": "official",
    "brand": "쉐보레",
    "address": "서울시 강동구 천호대로 1005",
    "phone": "02-476-1234",
    "lat": 37.5384,
    "lng": 127.1234,
    "rating": 4.1,
    "reviewCount": 112,
    "openHours": "09:00-18:00",
    "closedDays": ["일요일"],
    "services": ["엔진오일", "브레이크", "타이어", "종합검진", "리콜"],
    "priceLevel": 3
  },
  {
    "id": "shop-007",
    "name": "BMW 공식 서비스센터 청담",
    "type": "official",
    "brand": "BMW",
    "address": "서울시 강남구 영동대로 416",
    "phone": "02-546-2580",
    "lat": 37.5198,
    "lng": 127.0471,
    "rating": 4.5,
    "reviewCount": 201,
    "openHours": "08:00-18:00",
    "closedDays": ["일요일", "공휴일"],
    "services": ["엔진오일", "브레이크", "종합검진", "소프트웨어 업데이트"],
    "priceLevel": 4
  },
  {
    "id": "shop-008",
    "name": "정직한 카센터",
    "type": "private",
    "brand": null,
    "address": "서울시 송파구 올림픽로 135",
    "phone": "02-421-5678",
    "lat": 37.5115,
    "lng": 127.0865,
    "rating": 4.8,
    "reviewCount": 67,
    "openHours": "08:30-18:30",
    "closedDays": ["일요일"],
    "services": ["엔진오일", "브레이크", "타이어", "에어컨", "전기장치"],
    "priceLevel": 1
  },
  {
    "id": "shop-009",
    "name": "르노코리아 서비스 강서점",
    "type": "official",
    "brand": "르노",
    "address": "서울시 강서구 공항대로 168",
    "phone": "02-2662-3456",
    "lat": 37.5595,
    "lng": 126.8654,
    "rating": 4.0,
    "reviewCount": 78,
    "openHours": "09:00-18:00",
    "closedDays": ["일요일"],
    "services": ["엔진오일", "브레이크", "타이어", "종합검진"],
    "priceLevel": 3
  },
  {
    "id": "shop-010",
    "name": "벤츠 공식 서비스센터 분당",
    "type": "official",
    "brand": "벤츠",
    "address": "경기도 성남시 분당구 판교로 256",
    "phone": "031-789-1234",
    "lat": 37.3947,
    "lng": 127.1112,
    "rating": 4.4,
    "reviewCount": 156,
    "openHours": "08:00-18:00",
    "closedDays": ["일요일"],
    "services": ["엔진오일", "브레이크", "종합검진", "소프트웨어 업데이트"],
    "priceLevel": 4
  },
  {
    "id": "shop-011",
    "name": "모터원 자동차",
    "type": "private",
    "brand": null,
    "address": "서울시 마포구 월드컵로 212",
    "phone": "02-332-8901",
    "lat": 37.5567,
    "lng": 126.9012,
    "rating": 4.5,
    "reviewCount": 134,
    "openHours": "09:00-19:00",
    "closedDays": ["일요일"],
    "services": ["엔진오일", "브레이크", "타이어", "에어컨", "판금도색"],
    "priceLevel": 2
  },
  {
    "id": "shop-012",
    "name": "오토오아시스 잠실점",
    "type": "franchise",
    "brand": "오토오아시스",
    "address": "서울시 송파구 올림픽로 300",
    "phone": "02-418-5678",
    "lat": 37.5134,
    "lng": 127.1012,
    "rating": 4.1,
    "reviewCount": 89,
    "openHours": "09:00-21:00",
    "closedDays": [],
    "services": ["엔진오일", "세차", "광택", "실내크리닝", "타이어"],
    "priceLevel": 2
  },
  {
    "id": "shop-013",
    "name": "현대 블루핸즈 용산점",
    "type": "official",
    "brand": "현대",
    "address": "서울시 용산구 한강대로 100",
    "phone": "02-798-1234",
    "lat": 37.5298,
    "lng": 126.9644,
    "rating": 4.3,
    "reviewCount": 198,
    "openHours": "09:00-18:00",
    "closedDays": ["일요일"],
    "services": ["엔진오일", "브레이크", "타이어", "종합검진", "보증수리"],
    "priceLevel": 3
  },
  {
    "id": "shop-014",
    "name": "대한정비",
    "type": "private",
    "brand": null,
    "address": "서울시 성동구 왕십리로 250",
    "phone": "02-2292-3456",
    "lat": 37.5612,
    "lng": 127.0378,
    "rating": 4.6,
    "reviewCount": 45,
    "openHours": "08:00-18:00",
    "closedDays": ["일요일", "토요일 오후"],
    "services": ["엔진오일", "브레이크", "미션", "엔진정비"],
    "priceLevel": 1
  },
  {
    "id": "shop-015",
    "name": "테슬라 서비스센터 강남",
    "type": "official",
    "brand": "테슬라",
    "address": "서울시 강남구 삼성로 511",
    "phone": "02-6952-0000",
    "lat": 37.5112,
    "lng": 127.0589,
    "rating": 4.2,
    "reviewCount": 87,
    "openHours": "09:00-18:00",
    "closedDays": ["일요일"],
    "services": ["배터리", "소프트웨어 업데이트", "타이어", "브레이크"],
    "priceLevel": 4
  }
]
